,City,Cloudiness,Country,Date,Humidity,Lat,Lng,Max Temperature,Wind Speed
0,nikolskoye,90,RU,1604005593,93,59.7,30.79,50.0,2.24
1,tasiilaq,100,GL,1604005415,96,65.61,-37.64,26.56,7.16
2,taiyuan,0,CN,1604005594,57,37.87,112.56,33.8,1.63
3,ribeira grande,75,PT,1604005594,94,38.52,-28.7,68.0,19.46
4,bethel,100,US,1604005377,96,41.37,-73.41,45.0,3.0
5,hermanus,1,ZA,1604005594,87,-34.42,19.23,46.99,8.34
6,saint george,1,US,1604005595,15,37.1,-113.58,73.0,0.13
7,yaan,43,NG,1604005595,80,7.38,8.57,78.1,6.24
8,albany,100,US,1604005315,90,42.6,-73.97,45.0,4.18
9,aktau,0,KZ,1604005595,45,43.65,51.2,46.4,15.66
10,mandalgovi,100,MN,1604005529,71,45.76,106.27,35.58,8.75
11,hilo,75,US,1604005541,62,19.73,-155.09,84.2,5.82
12,tuktoyaktuk,38,CA,1604005388,93,69.45,-133.04,6.17,6.17
13,ushuaia,40,AR,1604005595,70,-54.8,-68.3,46.4,27.51
14,khromtau,0,KZ,1604005365,69,50.25,58.43,37.81,6.44
15,poum,79,NC,1604005595,69,-20.23,164.02,76.73,12.55
16,dikson,100,RU,1604005421,92,73.51,80.55,6.64,24.25
17,mataura,100,NZ,1604005595,82,-46.19,168.86,62.01,1.01
18,atuona,78,PF,1604005595,69,-9.8,-139.03,78.17,18.05
19,pevek,100,RU,1604005477,93,69.7,170.31,18.86,8.59
20,avarua,100,CK,1604005438,73,-21.21,-159.78,77.0,9.17
21,tiksi,100,RU,1604005405,94,71.69,128.87,5.95,7.49
22,san cristobal,40,VE,1604005596,58,7.77,-72.22,87.8,9.17
23,namibe,2,AO,1604005596,70,-15.2,12.15,70.25,6.89
24,vaini,40,TO,1604005334,69,-21.2,-175.2,75.2,9.17
25,yellowknife,2,CA,1604005481,91,62.46,-114.35,23.0,6.38
26,korla,93,CN,1604005596,82,41.76,86.15,44.01,4.0
27,katsuura,75,JP,1604005596,47,35.13,140.3,59.0,17.22
28,gobabis,98,NA,1604005596,42,-22.45,18.97,73.44,8.08
29,touros,20,BR,1604005596,74,-5.2,-35.46,80.6,10.29
30,bredasdorp,5,ZA,1604005402,58,-34.53,20.04,53.6,8.05
31,punta arenas,40,CL,1604005597,46,-53.15,-70.92,53.6,33.33
32,hobart,75,AU,1604005526,82,-42.88,147.33,57.99,5.82
33,plouzane,90,FR,1604005597,93,48.38,-4.62,59.0,20.8
34,cherskiy,93,RU,1604005408,92,68.75,161.3,5.4,4.97
35,torbay,95,CA,1604005399,83,47.67,-52.73,39.99,3.0
36,riohacha,93,CO,1604005597,80,11.54,-72.91,83.19,8.81
37,port alfred,100,ZA,1604005597,73,-33.59,26.89,62.28,18.01
38,srednekolymsk,100,RU,1604005400,94,67.45,153.68,3.15,0.98
39,hithadhoo,18,MV,1604005487,75,-0.6,73.08,82.9,11.81
40,pisco,0,PE,1604005597,64,-13.7,-76.22,71.6,14.99
41,bria,83,CF,1604005597,97,6.54,21.99,69.8,3.38
42,jamestown,90,US,1604005316,100,42.1,-79.24,45.0,8.05
43,egvekinot,5,RU,1604005406,86,66.32,-179.17,13.24,2.75
44,vao,69,NC,1604005478,83,-22.67,167.48,73.44,20.18
45,kousseri,0,CM,1604005598,34,12.08,15.03,80.6,2.24
46,goba,3,ET,1604005598,85,7.02,39.98,47.5,3.0
47,east london,100,ZA,1604005372,83,-33.02,27.91,63.09,20.65
48,rikitea,57,PF,1604005598,76,-23.12,-134.97,74.86,11.92
49,hasaki,75,JP,1604005349,71,35.73,140.83,53.6,5.82
50,victoria,64,HK,1604005371,83,22.29,114.16,75.0,1.01
51,naujamiestis,40,LT,1604005598,100,55.69,24.15,44.6,5.23
52,rawson,0,AR,1604005598,41,-43.3,-65.1,58.57,15.21
53,gazalkent,0,UZ,1604005598,48,41.56,69.77,41.0,4.7
54,qaanaaq,11,GL,1604005373,72,77.48,-69.36,5.14,5.7
55,batagay,100,RU,1604005544,92,67.63,134.63,0.61,1.05
56,ngunguru,100,NZ,1604005583,78,-35.62,174.5,66.99,11.01
57,hodal,0,IN,1604005599,27,27.9,77.37,69.03,0.51
58,nabire,83,ID,1604005599,86,-3.37,135.48,74.82,4.74
59,aanekoski,90,FI,1604005599,100,62.69,25.82,42.8,4.7
60,virginia beach,90,US,1604005323,74,36.85,-75.98,82.99,20.8
61,adre,71,TD,1604005599,21,13.47,22.2,81.28,12.17
62,provideniya,0,RU,1604005329,67,64.38,-173.3,19.4,2.24
63,puerto ayora,20,EC,1604005409,73,-0.74,-90.35,77.0,13.87
64,kindu,98,CD,1604005599,95,-2.95,25.95,69.31,1.12
65,pervomayskoye,91,RU,1604005599,84,43.92,46.71,61.0,15.28
66,sechura,64,PE,1604005445,55,-5.56,-80.82,76.41,18.45
67,chokurdakh,99,RU,1604005599,93,70.63,147.92,-5.28,4.36
68,vardo,75,NO,1604005479,81,70.37,31.11,33.8,10.29
69,killam,66,CA,1604005600,51,52.78,-111.85,41.0,8.99
70,castro,100,BR,1604005504,91,-24.79,-50.01,61.66,7.09
71,labuhan,33,ID,1604005564,77,-6.88,112.21,81.21,8.14
72,novoaleksandrovsk,100,RU,1604005600,78,45.49,41.22,59.56,6.17
73,eureka,1,US,1604005420,44,40.8,-124.16,72.0,4.7
74,turukhansk,86,RU,1604005600,94,65.82,87.98,9.0,8.86
75,isangel,5,VU,1604005600,74,-19.55,169.27,77.7,15.82
76,zhigansk,99,RU,1604005552,91,66.77,123.37,-6.59,4.94
77,birin,0,NP,1604005600,54,26.89,88.07,58.33,5.99
78,naze,90,JP,1604005601,60,28.37,129.48,75.2,11.41
79,mayumba,83,GA,1604005601,88,-3.43,10.66,77.36,2.13
80,sitka,40,US,1604005443,87,57.05,-135.33,42.8,2.53
81,dunedin,100,NZ,1604005575,82,-45.87,170.5,57.99,7.0
82,kodiak,1,US,1604005491,64,57.79,-152.41,37.4,2.57
83,leningradskiy,100,RU,1604005404,88,69.38,178.42,16.29,11.34
84,berlevag,75,NO,1604005601,80,70.86,29.09,35.6,17.22
85,kot addu,0,PK,1604005601,82,30.47,70.97,68.0,4.56
86,mogok,100,MM,1604005577,89,22.92,96.5,66.97,0.58
87,barrow,90,US,1604005601,85,71.29,-156.79,14.0,11.41
88,mishan,0,CN,1604005601,92,45.55,131.88,31.39,13.47
89,bluff,100,NZ,1604005602,82,-46.6,168.33,62.01,1.01
90,noyabrsk,86,RU,1604005602,97,63.2,75.45,14.58,7.74
91,tabou,92,CI,1604005558,89,4.42,-7.35,77.61,6.2
92,ketchikan,40,US,1604005528,100,55.34,-131.65,42.8,4.25
93,tarko-sale,15,RU,1604005602,90,64.92,77.78,3.54,8.12
94,butaritari,48,KI,1604005602,73,3.07,172.79,82.18,12.08
95,creston,90,US,1604005602,60,41.06,-94.36,41.0,10.29
96,caravelas,100,BR,1604005543,81,-17.71,-39.25,77.81,12.24
97,tyrma,6,RU,1604005602,96,50.08,132.17,28.09,1.59
98,mahebourg,6,MU,1604005409,67,-20.41,57.7,69.01,8.01
99,mackay,0,AU,1604005541,94,-21.15,149.2,69.01,5.82
100,geraldton,53,AU,1604005326,82,-28.77,114.6,64.4,3.36
101,saldanha,0,ZA,1604005520,70,-33.01,17.94,48.2,4.7
102,domoni,0,KM,1604005603,81,-12.26,44.53,77.13,3.85
103,stokmarknes,75,NO,1604005603,64,68.56,14.91,37.4,10.29
104,kismayo,82,SO,1604005603,79,-0.36,42.55,79.5,11.32
105,bengkulu,86,ID,1604005603,87,-3.8,102.27,75.15,3.85
106,lolotique,20,SV,1604005603,66,13.55,-88.35,89.6,2.21
107,busselton,1,AU,1604005603,47,-33.65,115.33,57.99,13.06
108,nanortalik,100,GL,1604005379,95,60.14,-45.24,30.72,13.89
109,ilulissat,20,GL,1604005603,72,69.22,-51.1,15.8,6.93
110,lethem,61,GY,1604005604,46,3.38,-59.8,93.61,6.53
111,beringovskiy,0,RU,1604005604,85,63.05,179.32,24.31,7.56
112,auki,100,SB,1604005539,87,-8.77,160.7,76.89,5.5
113,baran,10,IN,1604005604,26,25.1,76.52,70.16,1.97
114,turan,75,VN,1604005604,100,16.07,108.22,77.0,2.95
115,morristown,75,US,1604005604,65,36.21,-83.29,77.0,11.41
116,aykhal,93,RU,1604005604,89,66.0,111.5,-7.55,3.02
117,carbonia,40,IT,1604005604,87,39.17,8.52,60.8,6.93
118,luderitz,42,NA,1604005604,72,-26.65,15.16,59.81,27.04
119,bambous virieux,6,MU,1604005604,67,-20.34,57.76,69.01,7.0
120,cabo san lucas,5,MX,1604005604,51,22.89,-109.91,82.99,12.75
121,arraial do cabo,90,BR,1604005604,94,-22.97,-42.03,77.0,4.7
122,ampere,100,BR,1604005604,87,-25.91,-53.47,65.68,6.98
123,marsa matruh,0,EG,1604005605,56,31.35,27.25,71.6,6.93
124,puri,75,IN,1604005605,60,19.8,85.85,75.29,10.33
125,bam,0,IR,1604005605,28,29.11,58.36,60.94,8.86
126,balikpapan,95,ID,1604005605,88,-1.27,116.83,76.66,5.23
127,lubbock,1,US,1604005605,42,33.6,-101.83,57.99,10.29
128,najran,0,SA,1604005437,31,17.49,44.13,64.4,2.24
129,lavrentiya,0,RU,1604005493,90,65.58,-171.0,23.32,7.7
130,soanierana ivongo,30,MG,1604005605,86,-16.92,49.58,71.98,8.84
131,upernavik,100,GL,1604005327,89,72.79,-56.15,22.37,2.71
132,lorengau,97,PG,1604005510,79,-2.02,147.27,81.7,7.74
133,chino valley,0,US,1604005605,19,34.76,-112.45,72.0,3.0
134,kupang,48,ID,1604005605,77,-10.17,123.58,78.91,4.03
135,severo-kurilsk,76,RU,1604005485,81,50.68,156.12,41.38,6.44
136,iqaluit,70,CA,1604005605,90,63.75,-68.51,6.76,9.37
137,broken hill,0,AU,1604005431,87,-31.95,141.43,50.0,10.29
138,new norfolk,11,AU,1604005402,74,-42.78,147.06,57.99,1.61
139,margate,100,GB,1604005606,84,51.38,1.39,59.0,5.99
140,oranjemund,0,NA,1604005606,77,-28.55,16.43,58.01,23.62
141,cape town,0,ZA,1604005606,66,-33.93,18.42,53.01,2.24
142,padang,81,ID,1604005435,71,-0.95,100.35,77.79,4.03
143,bandarbeyla,43,SO,1604005535,82,9.49,50.81,78.75,11.05
144,vagur,100,FO,1604005606,81,61.47,-6.81,49.06,26.26
145,namatanai,98,PG,1604005606,85,-3.67,152.43,78.6,6.87
146,sao felix do xingu,79,BR,1604005329,54,-6.64,-51.99,88.27,1.74
147,ishigaki,92,JP,1604005606,81,24.34,124.16,77.09,25.81
148,wanning,40,CN,1604005606,90,18.8,110.4,76.89,11.88
149,paita,31,PE,1604005606,71,-5.09,-81.11,69.73,18.3
150,ixtapa,75,MX,1604005606,66,20.7,-105.2,86.0,11.41
151,albanel,85,CA,1604005606,90,48.88,-72.45,27.52,7.78
152,erenhot,0,CN,1604005335,56,43.65,111.98,40.3,9.64
153,kaitangata,100,NZ,1604005403,82,-46.28,169.85,57.99,1.99
154,carutapera,13,BR,1604005607,75,-1.2,-46.02,81.45,8.55
155,berezovyy,7,RU,1604005607,93,51.67,135.7,29.16,2.51
156,clyde river,100,CA,1604005392,95,70.47,-68.59,19.87,11.99
157,salalah,0,OM,1604005607,65,17.02,54.09,78.8,3.36
158,zhanaozen,43,KZ,1604005607,54,43.3,52.8,44.08,22.68
159,bathsheba,40,BB,1604005607,94,13.22,-59.52,77.0,28.86
160,ugoofaaru,20,MV,1604005607,74,5.67,73.0,82.26,9.78
161,los llanos de aridane,75,ES,1604005607,68,28.66,-17.92,71.6,13.87
162,constitucion,0,CL,1604005565,53,-35.33,-72.42,62.62,14.16
163,novopokrovka,0,UA,1604005607,75,49.84,36.55,44.6,8.95
164,kapaa,1,US,1604005328,61,22.08,-159.32,81.0,2.59
165,puerto baquerizo moreno,75,EC,1604005348,83,-0.9,-89.6,73.4,9.17
166,tuatapere,100,NZ,1604005607,82,-46.13,167.68,62.01,1.01
167,dali,70,CN,1604005607,83,25.7,100.18,55.56,1.36
168,fomboni,0,KM,1604005607,73,-12.28,43.74,79.48,3.27
169,sola,90,VU,1604005455,78,-13.88,167.55,81.0,18.16
170,mukdahan,61,TH,1604005608,95,16.58,104.5,71.44,3.53
171,voskehat,0,AM,1604005608,57,40.14,44.33,48.2,2.84
172,monrovia,20,LR,1604005608,88,6.3,-10.8,80.6,8.46
173,axim,20,GH,1604005531,85,4.87,-2.24,78.17,4.92
174,kameno,75,BG,1604005608,87,42.57,27.3,57.99,2.08
175,high level,0,CA,1604005608,85,58.52,-117.14,26.38,3.42
176,yuryevets,0,RU,1604005608,78,57.32,43.1,38.16,11.21
177,kazanskoye,100,RU,1604005608,91,55.64,69.23,34.93,12.95
178,jalu,0,LY,1604005379,61,29.03,21.55,65.14,10.18
179,salinas,1,US,1604005351,16,36.68,-121.66,78.8,3.36
180,mar del plata,20,AR,1604005608,47,-38.0,-57.56,55.4,12.75
181,neiafu,40,TO,1604005608,64,-18.65,-173.98,75.2,5.82
182,lebu,0,CL,1604005405,69,-37.62,-73.65,55.6,20.8
183,faanui,0,PF,1604005609,76,-16.48,-151.75,80.42,9.78
184,cabedelo,0,BR,1604005434,69,-6.98,-34.83,80.6,9.17
185,andros town,40,BS,1604005609,74,24.7,-77.77,84.2,11.41
186,bagrami,0,AF,1604005609,35,34.49,69.27,39.2,2.24
187,saint-philippe,75,RE,1604005319,60,-21.36,55.77,71.6,23.04
188,rakke,100,EE,1604005609,96,58.98,26.25,45.05,3.11
189,tlazazalca,90,MX,1604005609,73,19.97,-102.07,73.4,8.05
190,bourail,99,NC,1604005609,58,-21.57,165.48,77.58,5.21
191,copiapo,0,CL,1604005522,55,-27.37,-70.33,64.4,11.41
192,dvorichna,100,UA,1604005609,78,49.85,37.69,46.31,6.82
193,tessalit,1,ML,1604005609,15,20.2,1.01,80.4,8.88
194,thompson,100,CA,1604005467,97,55.74,-97.86,26.91,10.38
195,la rioja,0,ES,1604005609,93,42.25,-2.5,54.0,1.12
196,turkistan,0,KZ,1604005610,64,43.0,68.0,40.19,13.11
197,sindou,3,BF,1604005610,34,10.67,-5.17,76.78,1.72
198,kirya,100,TZ,1604005610,70,-3.92,37.48,72.41,5.97
199,lubao,75,PH,1604005610,88,14.92,120.55,78.8,4.7
200,san quintin,0,MX,1604005610,41,30.48,-115.95,73.31,9.66
201,killybegs,90,IE,1604005610,93,54.63,-8.45,57.2,24.16
202,havelock,100,US,1604005610,84,34.88,-76.9,79.0,13.0
203,pangnirtung,69,CA,1604005610,85,66.15,-65.71,7.47,3.4
204,haines junction,100,CA,1604005317,91,60.75,-137.51,24.8,2.33
205,itoman,75,JP,1604005611,73,26.12,127.67,77.0,9.17
206,kahului,75,US,1604005499,88,20.89,-156.47,75.2,5.82
207,aiquile,73,BO,1604005611,57,-18.2,-65.18,64.35,17.25
208,charters towers,0,AU,1604005595,61,-20.1,146.27,72.52,6.76
209,kuryk,0,KZ,1604005611,44,43.2,51.65,51.57,24.83
210,staryy nadym,100,RU,1604005611,96,65.61,72.68,13.14,8.59
211,terney,95,RU,1604005611,73,45.05,136.61,41.7,9.17
212,esil,5,KZ,1604005611,94,51.96,66.4,32.2,6.96
213,roros,89,NO,1604005386,94,62.57,11.38,32.0,2.24
214,ust-uda,100,RU,1604005611,96,54.17,103.03,29.39,5.55
215,longyearbyen,20,SJ,1604005611,62,78.22,15.64,19.4,17.22
216,upornaya,52,RU,1604005611,46,44.39,41.02,59.47,5.97
217,te anau,100,NZ,1604005430,85,-45.42,167.72,59.02,2.13
218,preobrazheniye,0,RU,1604005612,76,42.9,133.91,37.8,7.72
219,adrar,52,MR,1604005531,14,20.5,-10.07,84.94,8.25
220,gambela,100,ET,1604005612,91,8.25,34.58,71.17,3.8
221,ilebo,4,CD,1604005612,95,-4.32,20.58,70.79,1.48
222,ust-barguzin,99,RU,1604005612,91,53.45,108.98,33.75,2.93
223,tevriz,100,RU,1604005612,93,57.51,72.4,37.13,11.36
224,kruisfontein,100,ZA,1604005612,86,-34.0,24.73,55.99,7.0
225,saskylakh,0,RU,1604005612,84,71.92,114.08,0.1,4.81
226,benjamin hill,53,MX,1604005612,20,30.17,-111.1,84.99,3.0
227,paveh,53,IR,1604005612,51,35.04,46.36,48.25,2.28
228,verkhoyansk,100,RU,1604005612,92,67.54,133.38,2.8,0.51
229,podor,95,MR,1604005612,12,16.65,-14.96,93.94,11.1
230,flinders,37,AU,1604005442,94,-34.58,150.86,63.0,1.01
231,faya,0,SA,1604005612,30,18.39,42.45,60.8,5.82
232,barka kana,38,IN,1604005613,50,23.62,85.48,66.42,5.5
233,ossora,99,RU,1604005613,96,59.24,163.07,32.59,2.59
234,bilma,0,NE,1604005443,18,18.69,12.92,74.82,5.88
235,carahue,0,CL,1604005613,43,-38.7,-73.17,71.6,11.41
236,ambilobe,0,MG,1604005613,70,-13.2,49.05,72.37,5.73
237,deputatskiy,100,RU,1604005613,94,69.3,139.9,1.69,0.45
238,mancio lima,78,BR,1604005613,50,-7.61,-72.9,92.41,3.02
239,kalevala,100,RU,1604005613,81,65.2,31.17,44.8,11.97
240,carnarvon,90,AU,1604005613,100,-24.87,113.63,69.8,4.7
241,fortuna,1,US,1604005492,39,40.6,-124.16,72.0,8.05
242,atar,34,MR,1604005613,17,20.52,-13.05,85.24,9.69
243,kholtoson,95,RU,1604005614,87,50.3,103.31,30.04,1.79
244,mount isa,0,AU,1604005614,43,-20.73,139.5,55.4,4.7
245,lompoc,1,US,1604005614,33,34.64,-120.46,75.99,10.29
246,ahipara,100,NZ,1604005614,72,-35.17,173.17,65.53,9.4
247,yar-sale,87,RU,1604005614,96,66.83,70.83,11.89,8.19
248,lerwick,84,GB,1604005614,81,60.15,-1.15,50.0,25.28
249,jiwani,0,PK,1604005614,57,25.05,61.74,74.32,7.74
250,petropavlovka,74,RU,1604005614,93,50.61,105.32,32.14,0.83
251,saint-pierre,75,RE,1604005615,60,-21.34,55.48,71.6,23.04
252,kavaratti,0,IN,1604005615,74,10.57,72.64,82.31,8.79
253,flin flon,100,CA,1604005615,96,54.77,-101.86,30.61,8.28
254,jacobina,93,BR,1604005615,71,-11.18,-40.52,76.6,2.89
255,palembang,0,ID,1604005615,93,-2.92,104.75,74.73,1.99
256,strezhevoy,90,RU,1604005615,92,60.73,77.59,21.2,2.24
257,evensk,18,RU,1604005377,84,61.95,159.23,19.71,3.96
258,laguna,1,US,1604005325,25,38.42,-121.42,77.0,1.88
259,fort wellington,96,GY,1604005615,75,6.4,-57.6,83.44,12.17
260,port elizabeth,87,ZA,1604005615,77,-33.92,25.57,59.0,21.92
261,shahr-e babak,0,IR,1604005615,51,30.12,55.12,44.58,2.8
262,shingu,38,JP,1604005615,72,33.73,135.98,50.81,6.06
263,san policarpo,100,PH,1604005615,84,12.18,125.51,81.86,15.26
264,esperance,0,AU,1604005615,87,-33.87,121.9,48.2,10.29
265,barra,86,BR,1604005615,61,-11.09,-43.14,83.39,7.14
266,kasongo-lunda,100,CD,1604005615,91,-6.47,16.82,72.25,1.81
267,necochea,0,AR,1604005517,61,-38.55,-58.74,55.0,5.99
268,isla mujeres,40,MX,1604005616,70,21.23,-86.73,86.0,8.05
269,sungairaya,80,ID,1604005616,85,0.7,108.9,78.6,6.42
270,hearst,0,CA,1604005616,75,49.68,-83.67,25.16,4.52
271,muravlenko,91,RU,1604005616,97,63.79,74.52,13.87,6.2
272,carauari,95,BR,1604005507,59,-4.88,-66.9,88.68,0.83
273,baillif,100,GP,1604005616,78,16.02,-61.75,82.4,11.41
274,emet,44,TR,1604005616,78,39.34,29.26,52.2,1.23
275,port macquarie,1,AU,1604005369,100,-31.43,152.92,55.99,3.76
276,saint-prosper,100,CA,1604005617,48,46.21,-70.48,34.0,4.76
277,diamantino,98,BR,1604005617,87,-14.41,-56.45,76.28,3.67
278,tual,91,ID,1604005617,69,-5.67,132.75,82.98,5.97
279,buenaventura,55,CO,1604005617,89,3.88,-77.03,79.25,4.5
280,thunder bay,2,CA,1604005559,61,48.4,-89.32,30.99,1.25
281,lasa,40,IT,1604005404,86,46.62,10.7,46.0,5.82
282,vikulovo,100,RU,1604005617,91,56.82,70.61,35.94,13.13
283,sisimiut,100,GL,1604005343,94,66.94,-53.67,21.52,5.64
284,cidreira,100,BR,1604005617,66,-30.18,-50.21,63.03,13.76
285,saint anthony,90,US,1604005524,51,45.02,-93.22,36.0,6.93
286,chapais,97,CA,1604005617,94,49.78,-74.85,20.26,6.53
287,juneau,90,US,1604005617,75,58.3,-134.42,43.0,11.41
288,shenavan,0,AM,1604005618,57,40.05,43.93,48.2,0.94
289,mandali,25,IQ,1604005618,26,33.75,45.55,64.42,1.32
290,veraval,69,IN,1604005618,66,20.9,70.37,79.2,7.81
291,serravalle pistoiese,100,IT,1604005618,86,43.91,10.83,57.0,1.54
292,neuquen,0,AR,1604005603,20,-38.95,-68.06,73.4,13.87
293,monte alegre,18,BR,1604005618,42,-2.01,-54.07,94.08,6.11
294,sangar,12,RU,1604005618,89,63.92,127.47,-12.77,1.19
295,ponta do sol,20,PT,1604005618,73,32.67,-17.1,69.8,11.41
296,yzeure,90,FR,1604005618,100,46.56,3.35,57.99,3.36
297,mocuba,0,MZ,1604005618,76,-16.84,36.99,71.47,2.13
298,mangaldai,4,IN,1604005618,89,26.43,92.03,69.96,4.85
299,ancud,0,CL,1604005618,54,-41.87,-73.82,57.2,10.29
300,salumbar,52,IN,1604005619,38,24.13,74.05,71.04,2.86
301,norman wells,49,CA,1604005393,91,65.28,-126.83,15.26,3.42
302,yulara,0,AU,1604005427,39,-25.24,130.99,62.6,9.17
303,erdenet,100,MN,1604005619,84,49.03,104.08,32.09,1.77
304,goalpara,0,IN,1604005567,84,26.17,90.62,70.47,3.8
305,ostrovnoy,100,RU,1604005619,85,68.05,39.51,43.0,26.19
306,verkhoturye,4,RU,1604005619,91,58.86,60.81,34.7,8.12
307,muisne,75,EC,1604005555,83,0.6,-80.03,80.6,9.17
308,kurumkan,96,RU,1604005619,92,54.3,110.3,30.69,2.8
309,cockburn town,0,TC,1604005365,77,21.46,-71.14,82.29,17.36
310,severo-yeniseyskiy,100,RU,1604005619,95,60.37,93.04,7.86,6.31
311,manoel urbano,76,BR,1604005619,52,-8.84,-69.26,90.45,3.87
312,muros,3,ES,1604005619,93,42.78,-9.06,51.01,6.24
313,sotnikovskoye,58,RU,1604005619,92,45.0,43.78,54.68,9.62
314,deoband,0,IN,1604005619,42,29.7,77.68,64.67,3.04
315,aksu,75,CN,1604005620,58,41.12,80.26,43.11,2.89
316,port-gentil,90,GA,1604005620,94,-0.72,8.78,78.8,3.36
317,matara,91,LK,1604005620,86,5.95,80.54,76.84,6.15
318,seoul,1,KR,1604005488,44,37.57,126.98,41.0,1.86
319,suntar,100,RU,1604005620,88,62.14,117.63,10.6,7.25
320,baculin,100,PH,1604005620,76,7.45,126.58,78.66,2.84
321,sioux lookout,0,CA,1604005600,81,50.1,-91.92,26.89,3.49
322,horsham,75,GB,1604005620,82,51.06,-0.33,59.0,16.11
323,hobyo,100,SO,1604005620,77,5.35,48.53,79.7,14.0
324,coquimbo,20,CL,1604005522,72,-29.95,-71.34,60.8,11.41
325,nyimba,11,ZM,1604005548,40,-14.56,30.81,78.62,6.64
326,loandjili,40,CG,1604005620,88,-4.76,11.86,78.8,8.05
327,hambantota,100,LK,1604005621,82,6.12,81.12,78.39,7.76
328,sambava,44,MG,1604005621,84,-14.27,50.17,72.77,11.48
329,oyama,75,JP,1604005621,71,36.3,139.8,61.0,3.36
330,puerto colombia,40,CO,1604005621,74,10.99,-74.95,86.0,4.7
331,koge,1,DK,1604005621,93,55.46,12.18,44.6,5.82
332,dingle,95,PH,1604005489,89,11.0,122.67,76.12,4.81
333,viking,98,CA,1604005621,51,53.1,-111.77,41.0,8.99
334,placerville,1,US,1604005607,12,38.73,-120.8,79.0,4.7
335,templin,40,DE,1604005461,76,53.12,13.5,50.0,11.41
336,mattru,59,SL,1604005621,91,7.62,-11.83,75.56,2.98
337,viedma,0,AR,1604005337,23,-40.81,-63.0,73.99,1.01
338,slavuta,71,UA,1604005622,93,50.3,26.87,48.02,5.7
339,mount gambier,40,AU,1604005622,93,-37.83,140.77,48.2,6.93
340,kuala pilah,20,MY,1604005622,88,2.74,102.25,78.8,1.23
341,morlaix,90,FR,1604005622,93,48.58,-4.0,57.99,23.04
342,san andres,75,CO,1604005622,88,12.58,-81.7,78.8,8.05
343,kimbe,87,PG,1604005623,82,-5.55,150.14,77.72,2.73
344,kaset sombun,100,TH,1604005623,93,16.28,101.95,72.43,3.09
345,balakirevo,0,RU,1604005623,83,56.51,38.84,36.99,7.99
346,shaunavon,96,CA,1604005602,73,49.65,-108.42,44.37,15.03
347,keuruu,90,FI,1604005623,100,62.27,24.7,46.0,6.93
348,viransehir,23,TR,1604005623,24,37.24,39.76,66.76,4.7
349,scarborough,100,GB,1604005623,90,54.28,-0.4,57.0,5.01
350,tabas,0,IR,1604005623,11,33.6,56.92,59.0,4.7
351,houma,1,US,1604005623,49,29.6,-90.72,68.0,11.41
352,khatanga,0,RU,1604005370,86,71.97,102.5,3.63,14.54
353,yerbogachen,99,RU,1604005624,96,61.28,108.01,13.78,6.4
354,maloy,75,NO,1604005624,81,61.94,5.11,48.2,11.41
355,nha trang,20,VN,1604005624,88,12.25,109.18,78.8,1.12
356,samarai,83,PG,1604005624,81,-10.62,150.67,79.59,6.53
357,thung song,94,TH,1604005624,93,8.16,99.68,74.05,2.1
358,okha,84,RU,1604005624,90,53.57,142.95,36.21,9.62
359,ourossogui,100,SN,1604005624,12,15.61,-13.32,91.92,7.11
360,soe,38,ID,1604005624,90,-9.86,124.28,66.78,2.48
361,mangaratiba,40,BR,1604005624,74,-22.96,-44.04,78.8,10.29
362,firovo,99,RU,1604005624,91,57.48,33.7,43.9,8.52
363,woodward,1,US,1604005625,50,36.43,-99.39,51.8,9.17
364,korhogo,100,CI,1604005625,47,9.45,-5.63,76.5,1.54
365,honiara,75,SB,1604005492,94,-9.43,159.95,75.2,5.3
366,serebryansk,90,KZ,1604005625,96,49.69,83.29,32.0,13.42
367,georgetown,20,MY,1604005625,88,5.41,100.34,78.8,4.79
368,gizo,95,SB,1604005625,73,-8.1,156.84,82.81,8.1
369,caracoli,15,CO,1604005625,73,6.41,-74.76,81.19,2.95
370,grindavik,75,IS,1604005445,93,63.84,-22.43,42.8,17.22
371,saint pete beach,75,US,1604005625,79,27.73,-82.74,86.0,14.99
372,phek,99,IN,1604005625,100,25.67,94.5,58.35,1.57
373,pandan,100,PH,1604005625,86,14.05,124.17,80.69,12.57
374,khandbari,0,NP,1604005625,32,27.37,87.2,64.15,5.21
375,emerald,0,AU,1604005404,63,-23.53,148.17,60.8,8.05
376,aklavik,100,CA,1604005388,92,68.22,-135.01,14.65,4.99
377,acajutla,20,SV,1604005428,58,13.59,-89.83,86.0,5.82
378,talnakh,63,RU,1604005575,85,69.49,88.4,4.35,7.63
379,mumford,51,GH,1604005626,86,5.26,-0.76,78.39,6.98
380,progreso,75,MX,1604005626,94,21.28,-89.67,77.0,11.41
381,mata,0,PT,1604005626,92,40.68,-7.46,52.0,1.83
382,gwadar,0,PK,1604005626,38,25.12,62.33,74.79,6.67
383,lata,0,PT,1604005525,92,40.16,-8.33,60.01,2.57
384,kieta,100,PG,1604005626,77,-6.22,155.63,81.55,3.56
385,vostok,99,RU,1604005409,100,46.49,135.88,31.1,2.68
386,vestmanna,94,FO,1604005626,100,62.16,-7.17,46.4,20.8
387,ola,96,RU,1604005626,91,59.58,151.28,28.47,5.26
388,aleppo,0,SY,1604005626,59,36.25,37.5,66.69,7.54
389,mecca,0,SA,1604005626,62,21.43,39.83,77.31,4.05
390,bolotnoye,100,RU,1604005626,99,55.67,84.4,29.3,17.92
391,dudinka,92,RU,1604005627,92,69.41,86.18,7.92,9.35
392,borba,87,BR,1604005627,52,-4.39,-59.59,92.5,0.81
393,kilakarai,100,IN,1604005627,68,9.23,78.78,81.12,9.69
394,oistins,40,BB,1604005355,94,13.07,-59.53,77.0,28.86
395,koygorodok,98,RU,1604005593,95,60.45,51.0,33.71,7.09
396,sao jose da coroa grande,85,BR,1604005627,78,-8.9,-35.15,77.54,7.36
397,airai,61,TL,1604005501,95,-8.93,125.41,60.4,1.63
398,kirovskiy,97,RU,1604005627,94,45.09,133.51,32.99,7.16
399,jumla,0,NP,1604005627,53,29.27,82.18,43.66,4.99
400,alice springs,8,AU,1604005587,29,-23.7,133.88,66.2,8.05
401,saint-augustin,85,CA,1604005441,85,51.23,-58.65,34.38,11.54
402,avera,40,US,1604005627,74,33.19,-82.53,84.2,9.17
403,bubaque,1,GW,1604005605,75,11.28,-15.83,84.25,12.08
404,homer,75,US,1604005330,80,59.64,-151.55,33.01,10.29
405,sinnamary,58,GF,1604005446,77,5.38,-52.95,83.14,11.48
406,san patricio,20,US,1604005628,35,28.02,-97.52,73.4,21.92
407,tilichiki,0,RU,1604005628,94,60.47,166.1,23.58,3.65
408,stromness,100,GB,1604005628,93,58.97,-3.3,50.0,24.16
409,port blair,99,IN,1604005584,85,11.67,92.75,80.29,8.81
410,yangambi,100,CD,1604005628,99,0.81,24.43,69.46,1.14
411,dahuk,0,IQ,1604005628,26,36.87,42.99,64.54,3.47
412,sindi,20,IN,1604005388,77,20.8,78.87,68.0,3.49
413,jiaojiang,13,CN,1604005508,66,28.68,121.44,60.01,6.85
414,chuy,16,UY,1604005488,67,-33.7,-53.46,57.51,14.45
415,estelle,0,US,1604005628,49,29.85,-90.11,68.0,4.0
416,garowe,18,SO,1604005628,68,8.41,48.48,77.7,14.88
417,sur,0,OM,1604005628,56,22.57,59.53,71.13,2.91
418,tahoua,0,NE,1604005628,25,14.89,5.27,84.2,2.24
419,santa fe,0,AR,1604005628,30,-31.63,-60.7,70.0,5.01
420,olafsvik,99,IS,1604005579,82,64.89,-23.71,43.83,16.91
421,havre-saint-pierre,53,CA,1604005628,86,50.23,-63.6,31.48,16.8
422,maxixe,27,MZ,1604005629,91,-23.86,35.35,72.73,7.16
423,santo antonio do ica,99,BR,1604005629,72,-3.1,-67.94,87.06,2.64
424,iwanai,87,JP,1604005629,81,42.97,140.51,42.49,1.9
425,kropotkin,97,RU,1604005629,60,45.44,40.58,64.0,4.47
426,horconcitos,89,PA,1604005629,90,8.47,-81.8,73.15,3.15
427,mikhaylovka,100,RU,1604005629,59,50.06,43.24,50.0,1.99
428,chulman,100,RU,1604005629,94,56.85,124.91,11.73,1.54
429,port hawkesbury,100,CA,1604005577,77,45.62,-61.35,45.0,3.0
430,tiarei,20,PF,1604005629,78,-17.53,-149.33,82.4,11.41
431,palmer,90,US,1604005629,93,42.16,-72.33,46.4,5.82
432,bowen,90,AU,1604005455,93,-20.02,148.23,66.2,2.26
433,yarmouth,90,US,1604005629,100,41.71,-70.23,48.0,5.82
434,mitchell,1,US,1604005630,56,43.71,-98.03,42.8,10.29
435,falam,68,MM,1604005630,100,22.92,93.68,58.06,0.96
436,porto seguro,75,BR,1604005630,78,-16.45,-39.06,78.8,13.87
437,mbigou,98,GA,1604005630,95,-1.9,11.91,69.66,3.36
438,mangrol,97,IN,1604005630,64,21.12,70.12,78.73,8.16
439,popondetta,69,PG,1604005630,85,-8.75,148.25,76.21,2.82
440,northam,100,GB,1604005572,90,51.03,-4.22,59.0,8.01
441,abomey,78,BJ,1604005630,94,7.18,1.99,75.07,6.87
442,mahanoro,88,MG,1604005630,87,-19.9,48.8,72.07,11.18
443,sao joao da barra,20,BR,1604005630,78,-21.64,-41.05,80.6,14.99
444,nemuro,10,JP,1604005630,83,43.32,145.57,44.49,14.14
445,kangaba,93,ML,1604005489,21,11.93,-8.42,78.21,3.94
446,chicama,35,PE,1604005442,77,-7.84,-79.15,64.4,13.87
447,manuk mangkaw,47,PH,1604005631,77,4.8,119.85,82.45,8.59
448,koluszki,0,PL,1604005631,93,51.74,19.82,45.0,10.29
449,rocha,0,UY,1604005631,75,-34.48,-54.33,54.91,16.8
450,baykit,100,RU,1604005631,93,61.67,96.37,13.06,1.59
451,dwarka,0,IN,1604005631,58,22.24,68.97,79.9,7.4
452,sobolevo,100,RU,1604005631,86,54.43,31.9,45.68,8.3
453,ibipeba,100,BR,1604005482,74,-11.64,-42.01,76.46,7.07
454,frontera,0,MX,1604005631,21,26.93,-101.45,73.35,6.49
455,alofi,75,NU,1604005631,69,-19.06,-169.92,75.2,17.22
456,kuusamo,90,FI,1604005632,86,65.97,29.18,41.0,14.99
457,zhezkazgan,0,KZ,1604005632,76,47.8,67.71,33.91,4.52
458,presidencia roque saenz pena,33,AR,1604005403,26,-26.79,-60.44,75.0,7.0
459,batagay-alyta,100,RU,1604005632,93,67.8,130.41,5.11,2.19
460,simi,47,SL,1604005632,63,9.57,-12.35,76.26,1.86
461,vila,0,PT,1604005552,89,42.03,-8.16,53.01,3.0
462,kysyl-syr,4,RU,1604005632,90,63.9,122.76,-7.47,2.19
463,kiruna,14,SE,1604005632,100,67.86,20.23,19.4,2.24
464,tawang,0,IN,1604005632,58,27.58,91.87,43.48,6.42
465,charagua,75,BO,1604005632,44,-19.8,-63.22,77.0,5.82
466,jacksonville beach,75,US,1604005525,52,30.29,-81.39,90.0,21.92
467,vilyuysk,59,RU,1604005632,91,63.76,121.62,-8.72,2.62
468,nioki,83,CD,1604005541,88,-2.72,17.68,72.19,2.44
469,souillac,8,MU,1604005633,67,-20.52,57.52,69.01,7.0
470,porto santo,40,PT,1604005633,72,33.07,-16.34,68.0,11.41
471,cuyahoga falls,100,US,1604005634,95,41.13,-81.48,48.0,10.51
472,smolenka,81,RU,1604005634,92,52.14,113.5,19.4,4.47
473,saint-louis,96,SN,1604005634,12,16.33,-15.0,92.08,8.05
474,lagoa,100,PT,1604005634,88,39.05,-27.98,68.29,28.7
475,mus,0,TR,1604005634,47,39.0,41.75,49.21,3.13
476,taltal,22,CL,1604005470,56,-25.4,-70.48,63.39,5.21
477,amapa,91,BR,1604005634,39,1.0,-52.0,92.17,4.99
478,hokitika,100,NZ,1604005634,95,-42.72,170.97,57.07,6.64
479,talcahuano,0,CL,1604005392,59,-36.72,-73.12,66.2,18.34
480,saint-francois,90,FR,1604005635,100,46.42,3.91,54.0,3.36
481,portland,50,US,1604005610,71,45.52,-122.68,62.01,1.01
482,shestakovo,10,RU,1604005635,93,56.49,103.96,22.51,4.47
483,almaznyy,20,RU,1604005635,76,48.04,40.05,57.2,13.42
484,tevaitoa,0,PF,1604005558,74,-16.78,-151.5,81.14,10.49
485,topi,0,PK,1604005635,58,34.07,72.62,62.01,6.64
486,mitsamiouli,0,KM,1604005635,77,-11.38,43.28,78.66,4.72
487,la grande,1,US,1604005635,25,45.32,-118.09,68.0,13.87
488,oranjestad,40,AW,1604005635,70,12.52,-70.03,86.0,12.75
489,farap,0,TM,1604005635,60,39.17,63.61,39.2,2.24
490,youghal,90,IE,1604005635,100,51.95,-7.85,55.99,25.28
491,usinsk,100,RU,1604005576,96,65.99,57.53,35.82,14.54
492,chalus,0,IR,1604005635,93,36.66,51.42,59.0,5.93
493,costinesti,73,RO,1604005635,100,43.95,28.63,54.0,10.29
494,hovd,0,MN,1604005410,73,48.01,91.64,27.0,6.89
495,ust-ilimsk,69,RU,1604005635,91,58.0,102.66,25.12,6.2
496,lufilufi,40,WS,1604005636,79,-13.87,-171.6,84.2,4.7
497,port lincoln,63,AU,1604005557,79,-34.73,135.87,56.03,24.16
498,waipawa,95,NZ,1604005636,88,-41.41,175.52,62.6,20.8
499,sembe,88,CG,1604005636,95,1.65,14.58,68.95,1.34
500,general roca,0,AR,1604005461,20,-39.03,-67.58,73.4,13.87
501,encheng,98,CN,1604005636,89,22.18,112.3,68.31,5.64
502,ypsonas,0,CY,1604005636,68,34.69,32.96,69.8,3.36
503,jodhpur,0,IN,1604005637,21,26.29,73.03,72.48,6.4
504,pacific grove,1,US,1604005607,48,36.62,-121.92,77.0,5.82
505,raudeberg,32,NO,1604005637,87,61.99,5.14,46.0,9.57
506,portoferraio,75,IT,1604005637,93,42.81,10.31,59.0,4.0
507,otradnoye,90,RU,1604005637,93,59.78,30.82,50.0,2.24
508,clarence town,75,AU,1604005637,100,-32.58,151.78,57.99,5.82
509,kavieng,100,PG,1604005422,76,-2.57,150.8,81.34,5.28
510,rosetta,20,EG,1604005637,64,31.4,30.42,75.2,10.29
511,plettenberg bay,99,ZA,1604005431,70,-34.05,23.37,56.66,11.97
512,hurricane,0,US,1604005638,18,37.18,-113.29,73.0,3.91
513,basco,49,PH,1604005638,78,20.45,121.97,80.15,25.72
514,la tuque,92,CA,1604005638,92,47.43,-72.78,28.81,5.61
515,alenquer,0,BR,1604005638,63,-1.94,-54.74,91.4,14.99
516,athabasca,98,CA,1604005638,79,54.72,-113.29,37.02,3.38
517,asino,100,RU,1604005638,98,57.0,86.15,25.81,10.74
518,steamboat springs,1,US,1604005629,45,40.48,-106.83,46.4,4.36
519,antofagasta,20,CL,1604005416,55,-23.65,-70.4,64.4,11.41
520,sibu,40,MY,1604005460,94,2.3,111.82,77.0,1.88
521,beira,0,MZ,1604005638,84,-19.84,34.84,74.21,6.98
522,tomatlan,99,MX,1604005638,59,19.93,-105.25,87.64,7.61
523,fujin,14,CN,1604005639,96,47.26,132.03,30.52,6.93
524,byron bay,12,AU,1604005639,100,-28.65,153.62,64.99,2.51
525,male,100,MV,1604005639,77,4.17,73.51,81.72,10.69
526,nizhniy tsasuchey,100,RU,1604005639,89,50.52,115.13,30.58,5.21
527,adeje,40,ES,1604005639,73,28.12,-16.73,70.0,5.82
528,honningsvag,75,NO,1604005386,64,70.98,25.97,37.4,13.87
529,hefei,0,CN,1604005639,82,31.86,117.28,57.99,6.71
530,crieff,100,GB,1604005639,93,56.37,-3.84,55.99,1.99
531,san isidro,75,PE,1604005639,68,-12.12,-77.05,69.01,11.41
532,bolshaya dzhalga,98,RU,1604005639,87,45.97,42.7,55.92,13.91
533,ribeira brava,20,PT,1604005640,73,32.65,-17.07,69.8,11.41
534,yeniseysk,100,RU,1604005640,96,58.45,92.17,17.98,3.69
535,barpeta,0,IN,1604005640,73,26.32,91.0,69.85,5.61
536,binuangan,100,PH,1604005640,95,8.92,124.79,73.99,1.99
537,gornopravdinsk,100,RU,1604005640,92,60.05,69.9,37.11,10.36
538,show low,1,US,1604005640,29,34.25,-110.03,62.01,3.36
539,ocos,75,GT,1604005640,70,14.51,-92.19,87.8,6.4
540,votkinsk,77,RU,1604005640,90,57.05,53.99,28.99,7.9
541,ulagan,99,RU,1604005640,83,50.63,87.96,21.07,3.58
542,blagoveshchensk,0,RU,1604005449,85,50.27,127.53,21.2,5.97
543,richards bay,70,ZA,1604005641,76,-28.78,32.04,73.2,8.55
544,komsomolskiy,0,UZ,1604005376,51,40.43,71.72,39.2,4.7
545,san pedro del pinatar,0,ES,1604005641,100,37.84,-0.79,63.0,5.82
546,kawalu,76,ID,1604005641,92,-7.38,108.21,72.9,0.54
547,bull savanna,15,JM,1604005641,81,17.89,-77.59,80.2,6.49
548,okhotsk,100,RU,1604005641,97,59.38,143.3,27.18,8.81
549,moyale,91,KE,1604005641,85,3.52,39.06,68.13,2.66
550,japura,76,ID,1604005641,96,-0.32,102.35,73.63,1.99
551,edea,40,CM,1604005641,100,3.8,10.13,77.0,1.32
552,buala,100,SB,1604005641,81,-8.14,159.59,79.95,6.44
553,svetlyy,0,RU,1604005642,93,54.67,20.13,46.4,4.47
